{
"type": "FeatureCollection",
"name": "TEFAP Agencies by County Served",
"crs": { "type": "name", "properties": { "name": "urn:ogc:def:crs:OGC:1.3:CRS84" } },
"features": [
{ "type": "Feature", "properties": { "Name": "Alameda", "description": "Agency Name: Alameda County Community Food Bank<br>Street Address: 7900 Edgewater Drive<br>City: Oakland<br>State: CA<br>Phone: 510-635-3663<br>Website: www.accfb.org", "Agency_Name": "Alameda County Community Food Bank", "Street_Address": "7900 Edgewater Drive", "City": "Oakland", "State": "CA", "Phone": "510-635-3663", "Website": "www.accfb.org" }, "geometry": null },
{ "type": "Feature", "properties": { "Name": "Alpine", "description": "Agency Name: Food Bank of El Dorado County<br>Street Address: 6230 Enterprise Drive<br>City: Diamond Springs<br>State: CA<br>Phone: 530-621-9950<br>Website: foodbankedc.org", "Agency_Name": "Food Bank of El Dorado County", "Street_Address": "6230 Enterprise Drive", "City": "Diamond Springs", "State": "CA", "Phone": "530-621-9950", "Website": "foodbankedc.org" }, "geometry": null },
{ "type": "Feature", "properties": { "Name": "Amador, Tuolumne", "description": "Agency Name: Interfaith Council of Amador County<br>Street Address: 12181 Airport Road<br>City: Jackson<br>State: CA<br>Phone: 209-267-9006<br>Website: www.feedamador.org\/site\/pages\/home.cgi", "Agency_Name": "Interfaith Council of Amador County", "Street_Address": "12181 Airport Road", "City": "Jackson", "State": "CA", "Phone": "209-267-9006", "Website": "www.feedamador.org\/site\/pages\/home.cgi" }, "geometry": null },
{ "type": "Feature", "properties": { "Name": "Butte, Colusa, Glenn, Plumas, Sierra", "description": "Agency Name: Community Action Agency of Butte County<br>Street Address: 2255 Del Oro Avenue<br>City: Oroville<br>State: CA<br>Phone: 530-538-7559<br>Website: www.buttecaa.com\/services\/FoodBank.asp", "Agency_Name": "Community Action Agency of Butte County", "Street_Address": "2255 Del Oro Avenue", "City": "Oroville", "State": "CA", "Phone": "530-538-7559", "Website": "www.buttecaa.com\/services\/FoodBank.asp" }, "geometry": null },
{ "type": "Feature", "properties": { "Name": "Calaveras", "description": "Agency Name: Resource Connection<br>Street Address: 206 George Reed Drive<br>City: San Andreas<br>State: CA<br>Phone: 209-754-1257<br>Website: www.trcac.org\/index.php", "Agency_Name": "Resource Connection", "Street_Address": "206 George Reed Drive", "City": "San Andreas", "State": "CA", "Phone": "209-754-1257", "Website": "www.trcac.org\/index.php" }, "geometry": null },
{ "type": "Feature", "properties": { "Name": "Colusa", "description": "Agency Name: See Butte County<br>Street Address: <br>City: Colusa<br>State: CA<br>Phone: 530-538-7559<br>Website: www.buttecaa.com\/services\/FoodBank.asp", "Agency_Name": "See Butte County", "Street_Address": "", "City": "Colusa", "State": "CA", "Phone": "530-538-7559", "Website": "www.buttecaa.com\/services\/FoodBank.asp" }, "geometry": null },
{ "type": "Feature", "properties": { "Name": "Contra Costa, Solano", "description": "Agency Name: Food Bank of Contra Costa & Solano<br>Street Address: 4010 Nelson Avenue<br>City: Concord<br>State: CA<br>Phone: 925-676-7543<br>Website: www.foodbankccs.org", "Agency_Name": "Food Bank of Contra Costa & Solano", "Street_Address": "4010 Nelson Avenue", "City": "Concord", "State": "CA", "Phone": "925-676-7543", "Website": "www.foodbankccs.org" }, "geometry": null },
{ "type": "Feature", "properties": { "Name": "Del Norte", "description": "Agency Name: Rural Human Services, Inc.<br>Street Address: 286 M Street Suite A<br>City: Crescent City<br>State: CA<br>Phone: 707-464-7441<br>Website: www.ruralhumanservices.org", "Agency_Name": "Rural Human Services, Inc.", "Street_Address": "286 M Street Suite A", "City": "Crescent City", "State": "CA", "Phone": "707-464-7441", "Website": "www.ruralhumanservices.org" }, "geometry": null },
{ "type": "Feature", "properties": { "Name": "El Dorado", "description": "Agency Name: Food Bank of El Dorado County<br>Street Address: 6230 Enterprise Drive<br>City: Diamond Springs<br>State: CA<br>Phone: 530-621-9950<br>Website: ", "Agency_Name": "Food Bank of El Dorado County", "Street_Address": "6230 Enterprise Drive", "City": "Diamond Springs", "State": "CA", "Phone": "530-621-9950", "Website": "" }, "geometry": null },
{ "type": "Feature", "properties": { "Name": "Fresno", "description": "Agency Name: Community Food Bank<br>Street Address: 3403 E. Central Avenue<br>City: Fresno<br>State: CA<br>Phone: 559-237-3663<br>Website: ", "Agency_Name": "Community Food Bank", "Street_Address": "3403 E. Central Avenue", "City": "Fresno", "State": "CA", "Phone": "559-237-3663", "Website": "" }, "geometry": null },
{ "type": "Feature", "properties": { "Name": "Glenn", "description": "Agency Name: See Butte County<br>Street Address: <br>City: Willows<br>State: CA<br>Phone: 530-538-7559<br>Website: www.buttecaa.com\/services\/FoodBank.asp", "Agency_Name": "See Butte County", "Street_Address": "", "City": "Willows", "State": "CA", "Phone": "530-538-7559", "Website": "www.buttecaa.com\/services\/FoodBank.asp" }, "geometry": null },
{ "type": "Feature", "properties": { "Name": "Humboldt", "description": "Agency Name: Food For People, Inc.<br>Street Address: 307 West 14th Street<br>City: Eureka<br>State: CA<br>Phone: 707-445-3166<br>Website: www.foodforpeople.org", "Agency_Name": "Food For People, Inc.", "Street_Address": "307 West 14th Street", "City": "Eureka", "State": "CA", "Phone": "707-445-3166", "Website": "www.foodforpeople.org" }, "geometry": null },
{ "type": "Feature", "properties": { "Name": "Imperial", "description": "Agency Name: Imperial Valley Food Bank<br>Street Address: 329 Applestill Road<br>City: El Centro<br>State: CA<br>Phone: 760-370-0966<br>Website: www.ivfoodbank.org", "Agency_Name": "Imperial Valley Food Bank", "Street_Address": "329 Applestill Road", "City": "El Centro", "State": "CA", "Phone": "760-370-0966", "Website": "www.ivfoodbank.org" }, "geometry": null },
{ "type": "Feature", "properties": { "Name": "Inyo, Mono", "description": "Agency Name: Inyo\/Mono Advocates For Community Action<br>Street Address: 224 South Main Street<br>City: Bishop<br>State: CA<br>Phone: 760-873-8557<br>Website: ", "Agency_Name": "Inyo\/Mono Advocates For Community Action", "Street_Address": "224 South Main Street", "City": "Bishop", "State": "CA", "Phone": "760-873-8557", "Website": "" }, "geometry": null },
{ "type": "Feature", "properties": { "Name": "Kern", "description": "Agency Name: Community Action Partnership of Kern<br>Street Address: 300 19th Street<br>City: Bakersfield<br>State: CA<br>Phone: 661-336-5236<br>Website: www.capk.org\/", "Agency_Name": "Community Action Partnership of Kern", "Street_Address": "300 19th Street", "City": "Bakersfield", "State": "CA", "Phone": "661-336-5236", "Website": "www.capk.org\/" }, "geometry": null },
{ "type": "Feature", "properties": { "Name": "Kings", "description": "Agency Name: Kings County Community Action Organization<br>Street Address: 1130 North 11th Avenue<br>City: Hanford<br>State: CA<br>Phone: 559-582-4386<br>Website: www.kcao.org", "Agency_Name": "Kings County Community Action Organization", "Street_Address": "1130 North 11th Avenue", "City": "Hanford", "State": "CA", "Phone": "559-582-4386", "Website": "www.kcao.org" }, "geometry": null },
{ "type": "Feature", "properties": { "Name": "Lake", "description": "Agency Name: Clearlake Gleaners, Inc.<br>Street Address: 1896 Big Valley Road<br>City: Finley<br>State: CA<br>Phone: 707-263-8082<br>Website: www.co.lake.ca.us\/Residents\/Disclaimer\/ResourceDirectory\/Food_Programs\/Clearlake_Gleaners_Food_Bank.htm", "Agency_Name": "Clearlake Gleaners, Inc.", "Street_Address": "1896 Big Valley Road", "City": "Finley", "State": "CA", "Phone": "707-263-8082", "Website": "www.co.lake.ca.us\/Residents\/Disclaimer\/ResourceDirectory\/Food_Programs\/Clearlake_Gleaners_Food_Bank.htm" }, "geometry": null },
{ "type": "Feature", "properties": { "Name": "Lassen, Modoc", "description": "Agency Name: Lassen County Council on Aging<br>Street Address: 1700 Sunkist Drive<br>City: Susanville<br>State: CA<br>Phone: 530-257-4884<br>Website: ", "Agency_Name": "Lassen County Council on Aging", "Street_Address": "1700 Sunkist Drive", "City": "Susanville", "State": "CA", "Phone": "530-257-4884", "Website": "" }, "geometry": null },
{ "type": "Feature", "properties": { "Name": "Los Angeles", "description": "Agency Name: Food Bank of Southern California<br>Street Address: 1444 San Francisco Avenue<br>City: Long Beach<br>State: CA<br>Phone: 562-435-3577<br>Website: www.foodbankofsocal.org", "Agency_Name": "Food Bank of Southern California", "Street_Address": "1444 San Francisco Avenue", "City": "Long Beach", "State": "CA", "Phone": "562-435-3577", "Website": "www.foodbankofsocal.org" }, "geometry": null },
{ "type": "Feature", "properties": { "Name": "Los Angeles", "description": "Agency Name: Los Angeles Regional Food Bank<br>Street Address: 1734 East 41st Street<br>City: Los Angeles<br>State: CA<br>Phone: 323-234-3030<br>Website: www.lafoodbank.org\/", "Agency_Name": "Los Angeles Regional Food Bank", "Street_Address": "1734 East 41st Street", "City": "Los Angeles", "State": "CA", "Phone": "323-234-3030", "Website": "www.lafoodbank.org\/" }, "geometry": null },
{ "type": "Feature", "properties": { "Name": "Madera", "description": "Agency Name: Madera County Food Bank<br>Street Address: 225 South Pine Street, Suite 101<br>City: Madera<br>State: CA<br>Phone: 559-674-1482<br>Website: ", "Agency_Name": "Madera County Food Bank", "Street_Address": "225 South Pine Street, Suite 101", "City": "Madera", "State": "CA", "Phone": "559-674-1482", "Website": "" }, "geometry": null },
{ "type": "Feature", "properties": { "Name": "Marin", "description": "Agency Name: SF-Marin Food Bank<br>Street Address: 75 Digital Drive<br>City: Novato<br>State: CA<br>Phone: 415-883-1302<br>Website: www.sfmfoodbank.org", "Agency_Name": "SF-Marin Food Bank", "Street_Address": "75 Digital Drive", "City": "Novato", "State": "CA", "Phone": "415-883-1302", "Website": "www.sfmfoodbank.org" }, "geometry": null },
{ "type": "Feature", "properties": { "Name": "Mariposa", "description": "Agency Name: See Merced County<br>Street Address: <br>City: Mariposa<br>State: CA<br>Phone: 209-726-3663<br>Website: www.mercedcountyfoodbank.org", "Agency_Name": "See Merced County", "Street_Address": "", "City": "Mariposa", "State": "CA", "Phone": "209-726-3663", "Website": "www.mercedcountyfoodbank.org" }, "geometry": null },
{ "type": "Feature", "properties": { "Name": "Mendocino", "description": "Agency Name: Mendocino Food and Nutrition Program, Inc.<br>Street Address: 910 North Franklin<br>City: Fort Bragg<br>State: CA<br>Phone: 707-964-9404<br>Website: www.fortbraggfoodbank.org\/home", "Agency_Name": "Mendocino Food and Nutrition Program, Inc.", "Street_Address": "910 North Franklin", "City": "Fort Bragg", "State": "CA", "Phone": "707-964-9404", "Website": "www.fortbraggfoodbank.org\/home" }, "geometry": null },
{ "type": "Feature", "properties": { "Name": "Merced, Mariposa", "description": "Agency Name: Merced County Food Bank, Inc<br>Street Address: 2000 West Olive<br>City: Merced<br>State: CA<br>Phone: 209-726-3663<br>Website: www.mercedcountyfoodbank.org", "Agency_Name": "Merced County Food Bank, Inc", "Street_Address": "2000 West Olive", "City": "Merced", "State": "CA", "Phone": "209-726-3663", "Website": "www.mercedcountyfoodbank.org" }, "geometry": null },
{ "type": "Feature", "properties": { "Name": "Modoc", "description": "Agency Name: See Lassen County<br>Street Address: <br>City: Alturas<br>State: CA<br>Phone: 530-257-4884<br>Website: ", "Agency_Name": "See Lassen County", "Street_Address": "", "City": "Alturas", "State": "CA", "Phone": "530-257-4884", "Website": "" }, "geometry": null },
{ "type": "Feature", "properties": { "Name": "Mono", "description": "Agency Name: See Inyo County<br>Street Address: <br>City: Bridgeport<br>State: CA<br>Phone: 760-873-8557<br>Website: www.imaca.net", "Agency_Name": "See Inyo County", "Street_Address": "", "City": "Bridgeport", "State": "CA", "Phone": "760-873-8557", "Website": "www.imaca.net" }, "geometry": null },
{ "type": "Feature", "properties": { "Name": "Monterey", "description": "Agency Name: Food Bank for Monterey County<br>Street Address: 815 West Market Street, #5<br>City: Salinas<br>State: CA<br>Phone: 831-758-1523<br>Website: www.foodbankformontereycounty.org", "Agency_Name": "Food Bank for Monterey County", "Street_Address": "815 West Market Street, #5", "City": "Salinas", "State": "CA", "Phone": "831-758-1523", "Website": "www.foodbankformontereycounty.org" }, "geometry": null },
{ "type": "Feature", "properties": { "Name": "Napa", "description": "Agency Name: Community Action of Napa Valley<br>Street Address: 3273 Claremont Way, Suite 207<br>City: Napa<br>State: CA<br>Phone: 707-253-6100<br>Website: www.canv.org\/foodbank.html", "Agency_Name": "Community Action of Napa Valley", "Street_Address": "3273 Claremont Way, Suite 207", "City": "Napa", "State": "CA", "Phone": "707-253-6100", "Website": "www.canv.org\/foodbank.html" }, "geometry": null },
{ "type": "Feature", "properties": { "Name": "Nevada", "description": "Agency Name: Food Bank of Nevada County<br>Street Address: 587 Sutton Way<br>City: Grass Valley<br>State: CA<br>Phone: 530-272-3796<br>Website: www.foodbankofnc.org", "Agency_Name": "Food Bank of Nevada County", "Street_Address": "587 Sutton Way", "City": "Grass Valley", "State": "CA", "Phone": "530-272-3796", "Website": "www.foodbankofnc.org" }, "geometry": null },
{ "type": "Feature", "properties": { "Name": "Orange", "description": "Agency Name: Community Action Partnership of Orange County<br>Street Address: 11870 Monarch Street<br>City: Garden Grove<br>State: CA<br>Phone: 714-897-6670<br>Website: www.capoc.org", "Agency_Name": "Community Action Partnership of Orange County", "Street_Address": "11870 Monarch Street", "City": "Garden Grove", "State": "CA", "Phone": "714-897-6670", "Website": "www.capoc.org" }, "geometry": null },
{ "type": "Feature", "properties": { "Name": "Orange", "description": "Agency Name: Second Harvest Food Bank of Orange County<br>Street Address: 8014 Marine Way<br>City: Irvine<br>State: CA<br>Phone: 949-653-2900<br>Website: ", "Agency_Name": "Second Harvest Food Bank of Orange County", "Street_Address": "8014 Marine Way", "City": "Irvine", "State": "CA", "Phone": "949-653-2900", "Website": "" }, "geometry": null },
{ "type": "Feature", "properties": { "Name": "Placer", "description": "Agency Name: Community Resources Council<br>Street Address: 133 Church Street<br>City: Roseville<br>State: CA<br>Phone: 916-783-0481<br>Website: ", "Agency_Name": "Community Resources Council", "Street_Address": "133 Church Street", "City": "Roseville", "State": "CA", "Phone": "916-783-0481", "Website": "" }, "geometry": null },
{ "type": "Feature", "properties": { "Name": "Plumas", "description": "Agency Name: See Butte County<br>Street Address: <br>City: Quincy<br>State: CA<br>Phone: 530-538-7559<br>Website: www.buttecaa.com\/services\/FoodBank.asp", "Agency_Name": "See Butte County", "Street_Address": "", "City": "Quincy", "State": "CA", "Phone": "530-538-7559", "Website": "www.buttecaa.com\/services\/FoodBank.asp" }, "geometry": null },
{ "type": "Feature", "properties": { "Name": "Riverside", "description": "Agency Name: Second Harvest Food Bank serving Riverside and San Bernardino Counties <br>Street Address: 2950-B Jefferson Street<br>City: Riverside<br>State: CA<br>Phone: 951-359-4757<br>Website: www.secondharvest.us\/", "Agency_Name": "Second Harvest Food Bank serving Riverside and San Bernardino Counties ", "Street_Address": "2950-B Jefferson Street", "City": "Riverside", "State": "CA", "Phone": "951-359-4757", "Website": "www.secondharvest.us\/" }, "geometry": null },
{ "type": "Feature", "properties": { "Name": "Sacramento", "description": "Agency Name: California Food Bank of Sacramento<br>Street Address: 5800 Foodlink Street<br>City: Sacramento<br>State: CA<br>Phone: 916-387-9000<br>Website: www.sacramentofoodbank.org", "Agency_Name": "California Food Bank of Sacramento", "Street_Address": "5800 Foodlink Street", "City": "Sacramento", "State": "CA", "Phone": "916-387-9000", "Website": "www.sacramentofoodbank.org" }, "geometry": null },
{ "type": "Feature", "properties": { "Name": "San Benito", "description": "Agency Name: The Community Food Bank of San Benito County<br>Street Address: 1133 San Felipe Road<br>City: Hollister<br>State: CA<br>Phone: 831-637-0340<br>Website: ", "Agency_Name": "The Community Food Bank of San Benito County", "Street_Address": "1133 San Felipe Road", "City": "Hollister", "State": "CA", "Phone": "831-637-0340", "Website": "" }, "geometry": null },
{ "type": "Feature", "properties": { "Name": "San Bernardino", "description": "Agency Name: Community Action Partnership of San Bernardino County<br>Street Address: 696 S. Tippecanoe Avenue<br>City: San Bernardino<br>State: CA<br>Phone: 909-723-1500<br>Website: www.sbcounty.gov\/capsbc\/", "Agency_Name": "Community Action Partnership of San Bernardino County", "Street_Address": "696 S. Tippecanoe Avenue", "City": "San Bernardino", "State": "CA", "Phone": "909-723-1500", "Website": "www.sbcounty.gov\/capsbc\/" }, "geometry": null },
{ "type": "Feature", "properties": { "Name": "San Diego", "description": "Agency Name: San Diego Food Bank<br>Street Address: 9850 Distribution Avenue<br>City: San Diego<br>State: CA<br>Phone: 858-527-1419<br>Website: ", "Agency_Name": "San Diego Food Bank", "Street_Address": "9850 Distribution Avenue", "City": "San Diego", "State": "CA", "Phone": "858-527-1419", "Website": "" }, "geometry": null },
{ "type": "Feature", "properties": { "Name": "San Francisco", "description": "Agency Name: SF-Marin Food Bank<br>Street Address: 900 Pennsylvania Avenue<br>City: San Francisco<br>State: CA<br>Phone: 415-282-1907<br>Website: www.sfmfoodbank.org", "Agency_Name": "SF-Marin Food Bank", "Street_Address": "900 Pennsylvania Avenue", "City": "San Francisco", "State": "CA", "Phone": "415-282-1907", "Website": "www.sfmfoodbank.org" }, "geometry": null },
{ "type": "Feature", "properties": { "Name": "San Joaquin", "description": "Agency Name: San Joaquin County Human Services Agency<br>Street Address: 2736 Teepee Dr, Suite C<br>City: Stockton<br>State: CA<br>Phone: 209-468-0982<br>Website: www.sjaging.org", "Agency_Name": "San Joaquin County Human Services Agency", "Street_Address": "2736 Teepee Dr, Suite C", "City": "Stockton", "State": "CA", "Phone": "209-468-0982", "Website": "www.sjaging.org" }, "geometry": null },
{ "type": "Feature", "properties": { "Name": "San Luis Obispo", "description": "Agency Name: Food Bank Coalition of San Luis Obispo County<br>Street Address: 2212 Golden Hill Road<br>City: Paso Robles<br>State: CA<br>Phone: 805-238-4664<br>Website: www.slofoodbank.org", "Agency_Name": "Food Bank Coalition of San Luis Obispo County", "Street_Address": "2212 Golden Hill Road", "City": "Paso Robles", "State": "CA", "Phone": "805-238-4664", "Website": "www.slofoodbank.org" }, "geometry": null },
{ "type": "Feature", "properties": { "Name": "San Mateo", "description": "Agency Name: See Santa Clara County<br>Street Address: <br>City: Redwood City<br>State: CA<br>Phone: 408-266-8866<br>Website: www.shfb.org", "Agency_Name": "See Santa Clara County", "Street_Address": "", "City": "Redwood City", "State": "CA", "Phone": "408-266-8866", "Website": "www.shfb.org" }, "geometry": null },
{ "type": "Feature", "properties": { "Name": "Santa Barbara", "description": "Agency Name: Food Bank of Santa Barbara<br>Street Address: 4554 Hollister<br>City: Santa Barbara<br>State: CA<br>Phone: 805-967-5741<br>Website: www.foodbanksbc.org\/", "Agency_Name": "Food Bank of Santa Barbara", "Street_Address": "4554 Hollister", "City": "Santa Barbara", "State": "CA", "Phone": "805-967-5741", "Website": "www.foodbanksbc.org\/" }, "geometry": null },
{ "type": "Feature", "properties": { "Name": "Santa Clara, San Mateo", "description": "Agency Name: Second Harvest Food Bank of Santa Clara\/San Mateo<br>Street Address: 750 Curtner Avenue<br>City: San Jose<br>State: CA<br>Phone: 408-266-8866<br>Website: www.shfb.org", "Agency_Name": "Second Harvest Food Bank of Santa Clara\/San Mateo", "Street_Address": "750 Curtner Avenue", "City": "San Jose", "State": "CA", "Phone": "408-266-8866", "Website": "www.shfb.org" }, "geometry": null },
{ "type": "Feature", "properties": { "Name": "Santa Cruz", "description": "Agency Name: Second Harvest Food Bank Serving Santa Cruz<br>Street Address: 800 Ohlone<br>City: Watsonville<br>State: CA<br>Phone: 831-722-7110<br>Website: www.thefoodbank.org", "Agency_Name": "Second Harvest Food Bank Serving Santa Cruz", "Street_Address": "800 Ohlone", "City": "Watsonville", "State": "CA", "Phone": "831-722-7110", "Website": "www.thefoodbank.org" }, "geometry": null },
{ "type": "Feature", "properties": { "Name": "Shasta", "description": "Agency Name: Shasta Senior Nutrition Programs, Inc.<br>Street Address: 100 Mercy Oaks Drive<br>City: Redding<br>State: CA<br>Phone: 530-226-3060<br>Website: www.ssnpweb.org\/id6.html", "Agency_Name": "Shasta Senior Nutrition Programs, Inc.", "Street_Address": "100 Mercy Oaks Drive", "City": "Redding", "State": "CA", "Phone": "530-226-3060", "Website": "www.ssnpweb.org\/id6.html" }, "geometry": null },
{ "type": "Feature", "properties": { "Name": "Sierra", "description": "Agency Name: See Butte County<br>Street Address: <br>City: Downieville<br>State: CA<br>Phone: 530-538-7559<br>Website: www.buttecaa.com\/services\/FoodBank.asp", "Agency_Name": "See Butte County", "Street_Address": "", "City": "Downieville", "State": "CA", "Phone": "530-538-7559", "Website": "www.buttecaa.com\/services\/FoodBank.asp" }, "geometry": null },
{ "type": "Feature", "properties": { "Name": "Siskiyou", "description": "Agency Name: Great Northern Corporation<br>Street Address: 780 South Davis Street<br>City: Weed<br>State: CA<br>Phone: 530-938-1502<br>Website: www.gnservices.org\/programs-and-services\/usda-food-commodities\/", "Agency_Name": "Great Northern Corporation", "Street_Address": "780 South Davis Street", "City": "Weed", "State": "CA", "Phone": "530-938-1502", "Website": "www.gnservices.org\/programs-and-services\/usda-food-commodities\/" }, "geometry": null },
{ "type": "Feature", "properties": { "Name": "Solano", "description": "Agency Name: See Contra Costa County<br>Street Address: <br>City: Fairfield<br>State: CA<br>Phone: 925-676-7543<br>Website: www.foodbankccs.org", "Agency_Name": "See Contra Costa County", "Street_Address": "", "City": "Fairfield", "State": "CA", "Phone": "925-676-7543", "Website": "www.foodbankccs.org" }, "geometry": null },
{ "type": "Feature", "properties": { "Name": "Sonoma", "description": "Agency Name: Redwood Empire Food Bank<br>Street Address: 3320 Industrial Drive<br>City: Santa Rosa<br>State: CA<br>Phone: 707-523-7900<br>Website: ", "Agency_Name": "Redwood Empire Food Bank", "Street_Address": "3320 Industrial Drive", "City": "Santa Rosa", "State": "CA", "Phone": "707-523-7900", "Website": "" }, "geometry": null },
{ "type": "Feature", "properties": { "Name": "Stanislaus", "description": "Agency Name: Salvation Army Modesto Citadel<br>Street Address: 600 Janopaul Ln<br>City: Modesto<br>State: CA<br>Phone: 209-522-3209<br>Website: www.salvationarmymodesto.org\/", "Agency_Name": "Salvation Army Modesto Citadel", "Street_Address": "600 Janopaul Ln", "City": "Modesto", "State": "CA", "Phone": "209-522-3209", "Website": "www.salvationarmymodesto.org\/" }, "geometry": null },
{ "type": "Feature", "properties": { "Name": "Sutter, Yuba", "description": "Agency Name: Yuba\/Sutter Gleaners Food Bank, Inc.<br>Street Address: 760 Stafford Way<br>City: Yuba City<br>State: CA<br>Phone: 530-673-3834<br>Website: www.ysgleaners.org", "Agency_Name": "Yuba\/Sutter Gleaners Food Bank, Inc.", "Street_Address": "760 Stafford Way", "City": "Yuba City", "State": "CA", "Phone": "530-673-3834", "Website": "www.ysgleaners.org" }, "geometry": null },
{ "type": "Feature", "properties": { "Name": "Tehama", "description": "Agency Name: Tehama County Gleaners<br>Street Address: 20699 Walnut Street<br>City: Red Bluff<br>State: CA<br>Phone: 530-529-2264<br>Website: ", "Agency_Name": "Tehama County Gleaners", "Street_Address": "20699 Walnut Street", "City": "Red Bluff", "State": "CA", "Phone": "530-529-2264", "Website": "" }, "geometry": null },
{ "type": "Feature", "properties": { "Name": "Trinity", "description": "Agency Name: Trinity County Food Assistance Program<br>Street Address: 9069 3rd Street<br>City: Weaverville<br>State: CA<br>Phone: 530-623-5409<br>Website: ", "Agency_Name": "Trinity County Food Assistance Program", "Street_Address": "9069 3rd Street", "City": "Weaverville", "State": "CA", "Phone": "530-623-5409", "Website": "" }, "geometry": null },
{ "type": "Feature", "properties": { "Name": "Tulare", "description": "Agency Name: Foodlink for Tulare County<br>Street Address: 7427 West Sunnyview<br>City: Visalia<br>State: CA<br>Phone: 559-651-3663<br>Website: www.foodlinktc.org", "Agency_Name": "Foodlink for Tulare County", "Street_Address": "7427 West Sunnyview", "City": "Visalia", "State": "CA", "Phone": "559-651-3663", "Website": "www.foodlinktc.org" }, "geometry": null },
{ "type": "Feature", "properties": { "Name": "Tuolumne", "description": "Agency Name: See Amador County<br>Street Address: <br>City: Sonora<br>State: CA<br>Phone: 209-267-9006<br>Website: www.feedamador.org\/site\/pages\/home.cgi", "Agency_Name": "See Amador County", "Street_Address": "", "City": "Sonora", "State": "CA", "Phone": "209-267-9006", "Website": "www.feedamador.org\/site\/pages\/home.cgi" }, "geometry": null },
{ "type": "Feature", "properties": { "Name": "Ventura", "description": "Agency Name: Food Share Inc. of Ventura County<br>Street Address: 4156 Southbank Road<br>City: Oxnard<br>State: CA<br>Phone: 805-983-7100<br>Website: www.foodshare.com", "Agency_Name": "Food Share Inc. of Ventura County", "Street_Address": "4156 Southbank Road", "City": "Oxnard", "State": "CA", "Phone": "805-983-7100", "Website": "www.foodshare.com" }, "geometry": null },
{ "type": "Feature", "properties": { "Name": "Yolo", "description": "Agency Name: Food Bank of Yolo County<br>Street Address: 1244 Fortna Street<br>City: Woodland<br>State: CA<br>Phone: 530-668-0690<br>Website: www.yolofoodbank.org", "Agency_Name": "Food Bank of Yolo County", "Street_Address": "1244 Fortna Street", "City": "Woodland", "State": "CA", "Phone": "530-668-0690", "Website": "www.yolofoodbank.org" }, "geometry": null },
{ "type": "Feature", "properties": { "Name": "Yuba", "description": "Agency Name: See Sutter County<br>Street Address: <br>City: Marysville<br>State: CA<br>Phone: 530-673-3834<br>Website: www.ysgleaners.org", "Agency_Name": "See Sutter County", "Street_Address": "", "City": "Marysville", "State": "CA", "Phone": "530-673-3834", "Website": "www.ysgleaners.org" }, "geometry": null }
]
}
